[
	{
		"id": 0,
		"name": "Shia Ithna-Ashari, Leva Institute, Qum",
		"params": {
			"Fajr": 16,
			"Isha": 14,
			"Maghrib": 4,
			"Midnight": "JAFARI"
		},
		"location": {
			"latitude": 34.6415764,
			"longitude": 50.8746035
		},
		"method": "JAFARI"
	},

	{
		"id": 1,
		"name": "University of Islamic Sciences, Karachi",
		"params": {
			"Fajr": 18,
			"Isha": 18
		},
		"location": {
			"latitude": 24.8614622,
			"longitude": 67.0099388
		},
		"method": "KARACHI"
	},

	{
		"id": 2,
		"name": "Islamic Society of North America (ISNA)",
		"params": {
			"Fajr": 15,
			"Isha": 15
		},
		"location": {
			"latitude": 39.70421229999999,
			"longitude": -86.39943869999999
		},
		"method": "ISNA"
	},

	{
		"id": 3,
		"name": "Muslim World League",
		"params": {
			"Fajr": 18,
			"Isha": 17
		},
		"location": {
			"latitude": 51.5194682,
			"longitude": -0.1360365
		},
		"method": "MWL"
	},

	{
		"id": 4,
		"name": "Umm Al-Qura University, Makkah",
		"params": {
			"Fajr": 18.5,
			"Isha": "90 min"
		},
		"location": {
			"latitude": 21.3890824,
			"longitude": 39.8579118
		},
		"method": "MAKKAH"
	},

	{
		"id": 5,
		"name": "Egyptian General Authority of Survey",
		"params": {
			"Fajr": 19.5,
			"Isha": 17.5
		},
		"location": {
			"latitude": 30.0444196,
			"longitude": 31.2357116
		},
		"method": "EGYPT"
	},

	{
		"id": 6,
		"name": "Institute of Geophysics, University of Tehran",
		"params": {
			"Fajr": 17.7,
			"Isha": 14,
			"Maghrib": 4.5,
			"Midnight": "JAFARI"
		},
		"location": {
			"latitude": 35.6891975,
			"longitude": 51.3889736
		},
		"method": "TEHRAN"
	},

	{
		"id": 7,
		"name": "London Unified Prayer Times",
		"params": {
			"Fajr": 14,
			"Isha": 9
		},
		"location": {
			"latitude": 51.56356206798022,
			"longitude": -0.10549859051483922
		},
		"method": "LUPT"
	}
]
